     2.11           OBSERVATION DATA    G (GPS)             RINEX VERSION / TYPE
teqc  2014Jan16     NOAA/NOS/NGS/CORS   20140506 01:35:21UTCPGM / RUN BY / DATE
Solaris x86 5.10|AMD64|cc SC5.8 -xarch=amd64|=+|=+          COMMENT
0000.000      (antenna height)                              COMMENT
BIT 2 OF LLI FLAGS DATA COLLECTED UNDER A/S CONDITION       COMMENT
ARBT                                                        MARKER NAME
4                                                           MARKER NUMBER
Michael S. Kelly    ARHD                                    OBSERVER / AGENCY
4513247109          TRIMBLE NETRS       NP 1.32 / SP 1.16   REC # / TYPE / VERS
60001997            TRM41249.00     NONE                    ANT # / TYPE
  -147353.2870 -5182836.0270  3702154.5080                  APPROX POSITION XYZ
        0.0000        0.0000        0.0000                  ANTENNA: DELTA H/E/N
     1     1                                                WAVELENGTH FACT L1/2
    11    L1    L2    L5    C1    P1    C2    P2    C5    S1# / TYPES OF OBSERV
          S2    S5                                          # / TYPES OF OBSERV
     5.0000                                                 INTERVAL
 SNR is mapped to RINEX snr flag value [0-9]                COMMENT
  L1 & L2: min(max(int(snr_dBHz/6), 0), 9)                  COMMENT
teqc windowed: start @ 2014 May  4 00:00:00.000             COMMENT
teqc windowed: delta = 86400.000 sec                        COMMENT
teqc edited: all SBAS satellites excluded                   COMMENT
teqc edited: all Galileo satellites excluded                COMMENT
teqc edited: all Compass satellites excluded                COMMENT
teqc edited: all QZSS satellites excluded                   COMMENT
  2014     5     4     0     0    0.0000000     GPS         TIME OF FIRST OBS
                                                            END OF HEADER
 14  5  4  0  0  0.0000000  0 10G15G26G07G11G17G19G08G01G28G09
   -189895.77346   -136801.96242                  25249928.4534
                  25249934.7854                         37.9004         17.8004

  -9135905.83147  -7095027.36444                  22911185.0864
                  22911187.8204                         43.4004         26.2004

 -20654712.69747 -16075077.95246                  21279416.2814
                  21279416.8324                         47.3004         37.4004

 -21489893.08947 -16203073.48445                  21502203.4064
                  21502203.3094                         47.3004         34.2004

 -16342898.28947 -12709869.82045                  22015486.5314
                  22015487.2934                         47.1004         35.9004

  -2679400.27445  -2062035.65543                  24836821.7344
                  24836826.5004                         35.4004         19.0004

 -29459475.45648 -22615379.81546                  20064402.0474
                  20064402.1684                         48.9004         40.0004

 -20034558.68948 -15427252.92846                  21357679.7814
                  21357683.2074                         49.1004         37.4004

 -19536620.82048 -15100388.28446                  21309492.7814
                  21309491.7814                         48.8004         37.5004

 -25436254.54548 -18991902.06846                  19818791.0554
                  19818790.6484                         49.9004         41.0004

 14  5  4  0  0  5.0000000  0 10G15G26G07G11G17G19G08G01G28G09
   -194454.57446   -140354.30842                  25249060.2424
                  25249067.2774                         37.1004         17.4004

  -9132168.79647  -7092115.38244                  22911895.8754
                  22911899.0904                         43.4004         25.9004

 -20641463.33147 -16064753.78646                  21281937.9534
                  21281938.0824                         47.9004         37.4004

 -21481843.84148 -16196801.34445                  21503735.0474
                  21503735.1644                         48.0004         33.5004

 -16353215.88347 -12717909.48446                  22013523.1174
                  22013524.2934                         46.5004         36.5004

  -2661711.10946  -2048251.86943                  24840188.8984
                  24840192.7774                         36.6004         19.3004

 -29456572.85948 -22613118.05646                  20064954.6414
                  20064954.3284                         49.5004         39.9004

 -20037299.46048 -15429388.58046                  21357157.7584
                  21357161.9494                         49.2004         37.6004

 -19541030.87048 -15103824.68146                  21308653.1414
                  21308652.6604                         48.5004         37.0004

 -25433287.95248 -18989590.44146                  19819355.6724
                  19819355.1024                         50.9004         41.2004

 14  5  4  0  0 10.0000000  0 10G15G26G07G11G17G19G08G01G28G09
   -199000.14246   -143896.27342                  25248196.6884
                  25248202.0004                         38.3004         17.4004

  -9128415.51347  -7089190.76544                  22912610.2974
                  22912613.1454                         43.9004         26.5004

 -20628202.22547 -16054420.45346                  21284461.1484
                  21284461.5354                         47.0004         36.9004

 -21473779.40548 -16190517.36845                  21505269.5314
                  21505269.3714                         48.4004         33.6004

 -16363524.67547 -12725942.29446                  22011561.4224
                  22011562.5784                         47.8004         36.8004

  -2644022.55146  -2034468.63143                  24843554.9384
                  24843559.3244                         36.1004         20.1004

 -29453653.88448 -22610843.53646                  20065509.9454
                  20065510.0084                         48.5004         39.8004

 -20040023.74448 -15431511.39446                  21356639.5944
                  21356643.4614                         50.2004         37.2004

 -19545438.21148 -15107258.97446                  21307815.0004
                  21307813.9304                         49.1004         37.0004

 -25430303.48548 -18987264.88246                  19819923.4454
                  19819923.0044                         49.1004         41.4004

 14  5  4  0  0 15.0000000  0 10G15G26G07G11G17G19G08G01G28G09
   -203532.61346   -147428.10742                  25247334.2814
                  25247339.6054                         37.3004         17.8004

  -9124646.16147  -7086253.59844                  22913327.8834
                  22913330.7734                         44.6004         26.0004

 -20614929.41547 -16044078.02146                  21286986.9304
                  21286986.9614                         46.9004         37.5004

 -21465699.82747 -16184221.59445                  21506806.6254
                  21506807.3244                         47.9004         33.8004

 -16373824.68648 -12733968.25946                  22009601.5864
                  22009602.5164                         48.3004         36.5004

  -2626334.75946  -2020685.94743                  24846920.8134
                  24846925.4384                         36.1004         21.1004

 -29450718.60548 -22608556.31046                  20066068.3284
                  20066068.7234                         50.0004         39.3004

 -20042731.61148 -15433621.41646                  21356124.4144
                  21356128.1994                         49.4004         37.2004

 -19549842.93648 -15110691.21446                  21306976.2114
                  21306976.0164                         49.1004         37.7004

 -25427301.28148 -18984925.50546                  19820494.8054
                  19820494.4304                         49.7004         41.3004

 14  5  4  0  0 20.0000000  0 10G15G26G07G11G17G19G08G01G28G09
   -208050.50746   -150948.52442                  25246474.2274
                  25246480.1914                         37.3004         16.9004

  -9120859.27047  -7083302.77244                  22914048.6484
                  22914051.7344                         44.3004         26.4004

 -20601643.56547 -16033725.41746                  21289514.8524
                  21289515.3554                         47.3004         37.4004

 -21457603.77547 -16177913.00045                  21508347.9454
                  21508348.2424                         46.4004         33.3004

 -16384114.57347 -12741986.32946                  22007643.7034
                  22007644.8054                         47.3004         36.6004

  -2608646.32846  -2006902.78143                  24850286.3204
                  24850291.4494                         36.7004         21.5004

 -29447765.65248 -22606255.31246                  20066630.3364
                  20066630.4844                         49.1004         39.6004

 -20045421.65148 -15435717.54446                  21355612.3054
                  21355615.8554                         48.5004         37.1004

 -19554243.62248 -15114120.31446                  21306139.1334
                  21306138.3364                         49.0004         37.6004

 -25424279.85548 -18982571.15146                  19821069.7584
                  19821069.5394                         50.0004         40.9004

 14  5  4  0  0 25.0000000  0 10G15G26G07G11G17G19G08G01G28G09
   -212556.60546   -154459.75142                  25245616.4844
                  25245622.4774                         37.3004         16.9004

  -9117057.56447  -7080340.42444                  22914772.0004
                  22914774.7274                         45.6004         26.7004

 -20588347.35547 -16023364.74546                  21292045.1644
                  21292045.6604                         46.4004         36.8004

 -21449493.96547 -16171593.67045                  21509890.9224
                  21509891.6134                         47.3004         33.9004

 -16394397.04348 -12749998.63646                  22005686.6564
                  22005687.9414                         48.1004         36.4004

  -2590959.94846  -1993121.21643                  24853652.1484
                  24853656.9264                         36.8004         21.3004

 -29444797.71148 -22603942.62846                  20067195.3984
                  20067195.5944                         49.5004         39.8004

 -20048096.58248 -15437801.91346                  21355103.5004
                  21355107.3874                         48.8004         37.2004

 -19558643.01748 -15117548.41546                  21305301.8054
                  21305301.3054                         49.0004         37.5004

 -25421241.97648 -18980203.97546                  19821647.8984
                  19821647.4384                         49.9004         41.1004

 14  5  4  0  0 30.0000000  0 10G15G26G07G11G17G19G08G01G28G09
   -217049.27846   -157960.51842                  25244761.0474
                  25244767.5554                         37.1004         17.8004

  -9113239.50347  -7077365.30844                  22915498.4224
                  22915501.4224                         45.1004         27.2004

 -20575039.19747 -16012994.76446                  21294577.5004
                  21294578.2274                         46.4004         37.1004

 -21441368.75048 -16165262.34845                  21511437.5944
                  21511437.7154                         48.2004         34.5004

 -16404670.43948 -12758003.86146                  22003731.8834
                  22003732.9924                         48.5004         36.3004

  -2573274.01146  -1979339.92843                  24857018.0704
                  24857022.4534                         37.0004         20.6004

 -29441813.17748 -22601617.02346                  20067763.1644
                  20067763.2154                         49.6004         39.9004

 -20050754.77548 -15439873.22446                  21354597.7664
                  21354601.1884                         48.8004         37.3004

 -19563039.46648 -15120974.21746                  21304465.3524
                  21304464.3364                         48.8004         37.5004

 -25418186.03648 -18977822.72546                  19822229.1024
                  19822229.3444                         50.0004         41.1004

 14  5  4  0  0 35.0000000  0 10G15G26G07G11G17G19G08G01G28G09
   -221528.48646   -161450.80843                  25243910.3754
                  25243915.5234                         38.3004         19.0004

  -9109405.03647  -7074377.41044                  22916227.7814
                  22916231.0554                         44.5004         26.5004

 -20561719.12247 -16002615.49146                  21297112.2504
                  21297112.9964                         46.6004         36.6004

 -21433228.20048 -16158919.06145                  21512986.2894
                  21512986.5824                         48.5004         34.0004

 -16414934.85548 -12766002.09846                  22001778.4844
                  22001779.7384                         48.4004         36.1004

  -2555588.60946  -1965559.12143                  24860382.9774
                  24860387.4614                         36.5004         20.6004

 -29438812.10048 -22599278.52346                  20068334.3914
                  20068334.8094                         49.6004         40.2004

 -20053396.29348 -15441931.54246                  21354095.0944
                  21354098.5634                         48.3004         37.4004

 -19567433.06148 -15124397.78846                  21303629.1804
                  21303628.6954                         49.3004         38.0004

 -25415112.05348 -18975427.40546                  19822814.3984
                  19822814.2814                         51.2004         41.3004

 14  5  4  0  0 40.0000000  0 10G15G26G07G11G17G19G08G01G28G09
   -225994.44346   -164930.77243                  25243059.2034
                  25243065.1604                         38.2004         18.3004

  -9105554.41547  -7071376.93244                  22916960.8054
                  22916964.4144                         44.7004         26.5004

 -20548387.34147 -15992227.11146                  21299649.3914
                  21299649.7234                         47.1004         36.0004

 -21425072.53048 -16152563.99545                  21514538.1024
                  21514538.3404                         48.7004         34.1004

 -16425190.35247 -12773993.37945                  21999826.3674
                  21999827.9534                         47.0004         35.9004

  -2537903.87345  -1951778.81643                  24863747.6174
                  24863752.4654                         35.7004         20.4004

 -29435794.63548 -22596927.25646                  20068908.9144
                  20068908.7664                         50.0004         40.1004

 -20056021.27548 -15443976.98346                  21353595.3134
                  21353598.8954                         49.2004         37.3004

 -19571823.92048 -15127819.22846                  21302793.8284
                  21302792.9144                         49.0004         37.4004

 -25412020.20248 -18973018.17746                  19823402.3524
                  19823402.4654                         51.0004         41.4004

 14  5  4  0  0 45.0000000  0 10G15G26G07G11G17G19G08G01G28G09
   -230447.11346   -168400.35543                  25242211.5634
                  25242218.0084                         37.3004         18.6004

  -9101687.58247  -7068363.82044                  22917696.6954
                  22917699.7544                         44.2004         25.8004

 -20535043.79047 -15981829.54946                  21302188.0634
                  21302188.8834                         46.6004         36.4004

 -21416901.64047 -16146197.06445                  21516093.1334
                  21516093.1024                         46.9004         33.7004

 -16435436.90647 -12781977.68445                  21997877.3444
                  21997877.6454                         47.0004         35.7004

  -2520219.78045  -1937998.99843                  24867113.0554
                  24867117.6134                         35.6004         19.3004

 -29432760.73548 -22594563.17946                  20069485.6174
                  20069486.1254                         49.6004         40.0004

 -20058629.66148 -15446009.48246                  21353099.1024
                  21353102.2464                         49.1004         37.4004

 -19576211.99948 -15131238.50646                  21301958.7894
                  21301957.8674                         48.7004         37.2004

 -25408910.43848 -18970594.98746                  19823994.5004
                  19823993.8404                         50.8004         41.2004

 14  5  4  0  0 50.0000000  0 10G15G26G07G11G17G19G08G01G28G09
   -234886.30646   -171859.50143                  25241367.9304
                  25241373.2194                         38.3004         18.6004

  -9097804.42847  -7065338.00044                  22918435.8984
                  22918438.7974                         44.2004         25.7004

 -20521688.41447 -15971422.76046                  21304730.0474
                  21304730.7034                         46.4004         36.5004

 -21408715.43847 -16139818.21945                  21517650.8754
                  21517651.3014                         47.4004         33.7004

 -16445674.52947 -12789955.04145                  21995929.3674
                  21995929.6094                         47.1004         35.8004

  -2502536.24545  -1924219.65543                  24870477.9224
                  24870482.8754                         35.8004         19.6004

 -29429710.27648 -22592186.19846                  20070066.4224
                  20070066.8954                         48.9004         39.9004

 -20061221.37048 -15448028.99646                  21352605.6414
                  21352609.0234                         49.3004         37.4004

 -19580597.19648 -15134655.53046                  21301124.0784
                  21301123.7234                         48.9004         37.4004

 -25405782.64348 -18968157.74146                  19824589.7894
                  19824589.5594                         50.6004         41.2004

 14  5  4  0  0 55.0000000  0 10G15G26G07G11G17G19G08G01G28G09
   -239312.22546   -175308.27142                  25240525.8524
                  25240530.4884                         38.8004         17.8004

  -9093905.08547  -7062299.55944                  22919177.8674
                  22919180.8244                         44.1004         25.8004

 -20508321.24447 -15961006.81146                  21307273.8054
                  21307274.2274                         46.3004         36.0004

 -21400514.08647 -16133427.55645                  21519211.3284
                  21519211.6024                         47.5004         34.0004

 -16455903.27747 -12797925.48546                  21993982.3444
                  21993982.8674                         46.1004         36.0004

  -2484853.41745  -1910440.82443                  24873843.1644
                  24873847.2504                         35.7004         20.6004

 -29426643.38648 -22589796.41746                  20070649.8984
                  20070650.0984                         49.3004         39.6004

 -20063796.48248 -15450035.56346                  21352116.0784
                  21352119.4104                         49.5004         37.4004

 -19584979.62248 -15138070.40146                  21300290.2734
                  21300289.3594                         49.3004         37.4004

 -25402636.93048 -18965706.53746                  19825188.3444
                  19825187.9264                         50.4004         41.0004

 14  5  4  0  1  0.0000000  0 10G15G26G07G11G17G19G08G01G28G09
   -243724.96146   -178746.74242                  25239686.0784
                  25239690.6764                         38.6004         17.8004

  -9089989.63047  -7059248.54944                  22919922.7274
                  22919925.9844                         43.3004         25.5004

 -20494942.48547 -15950581.80845                  21309819.4534
                  21309819.9064                         46.6004         35.7004

 -21392297.65647 -16127025.13845                  21520774.7734
                  21520774.8204                         47.6004         33.7004

 -16466123.23247 -12805889.05946                  21992038.1954
                  21992038.5514                         46.7004         36.2004

  -2467171.28845  -1896662.55743                  24877207.1804
                  24877212.7854                         35.5004         21.7004

 -29423560.11048 -22587393.86746                  20071236.5234
                  20071237.0784                         50.0004         39.6004

 -20066355.09048 -15452029.28946                  21351628.8524
                  21351632.3594                         48.7004         37.6004

 -19589359.32948 -15141483.16146                  21299456.8134
                  21299456.1884                         48.2004         37.6004

 -25399473.39648 -18963241.44946                  19825789.9454
                  19825789.7504                         49.9004         41.1004

 14  5  4  0  1  5.0000000  0 10G15G26G07G11G17G19G08G01G28G09
   -248124.35146   -182174.81443                  25238847.6484
                  25238853.8014                         37.9004         18.6004

  -9086058.00947  -7056184.96044                  22920670.7974
                  22920674.3164                         43.6004         25.7004

 -20481552.00147 -15940147.68046                  21312367.5394
                  21312368.2304                         47.4004         36.3004

 -21384066.05347 -16120610.91845                  21522341.4924
                  21522341.7894                         47.7004         34.0004

 -16476334.32247 -12813845.73846                  21990094.7894
                  21990095.3134                         47.4004         36.7004

  -2449489.97446  -1882884.92743                  24880572.5864
                  24880577.1484                         36.7004         22.2004

 -29420460.44248 -22584978.54046                  20071826.6484
                  20071826.8674                         49.6004         39.7004

 -20068897.13048 -15454010.09646                  21351144.9304
                  21351148.9534                         48.4004         37.5004

 -19593736.30948 -15144893.78046                  21298623.6884
                  21298623.1954                         49.4004         37.1004

 -25396291.95448 -18960762.40346                  19826395.4774
                  19826395.1684                         50.9004         41.3004

 14  5  4  0  1 10.0000000  0 10G15G26G07G11G17G19G08G01G28G09
   -252510.39146   -185592.50243                  25238014.2194
                  25238018.9144                         38.6004         19.0004

  -9082110.19847  -7053108.75044                  22921421.9384
                  22921425.6294                         43.6004         24.8004

 -20468149.74547 -15929704.37646                  21314917.9304
                  21314918.7154                         46.4004         37.1004

 -21375819.26747 -16114184.85845                  21523910.9844
                  21523910.9774                         46.7004         33.8004

 -16486536.47248 -12821795.45146                  21988153.5164
                  21988154.2424                         48.8004         36.8004

  -2431809.23146  -1869107.74443                  24883937.8054
                  24883941.8714                         38.1004         22.5004

 -29417344.24748 -22582550.34146                  20072419.2974
                  20072419.8014                         49.1004         39.4004

 -20071422.51848 -15455977.92646                  21350664.7974
                  21350668.5044                         48.6004         37.2004

 -19598110.45448 -15148302.20646                  21297791.5314
                  21297790.9224                         48.4004         37.0004

 -25393092.54948 -18958269.36146                  19827004.5234
                  19827004.2344                         50.5004         41.3004

 14  5  4  0  1 15.0000000  0 10G15G26G07G11G17G19G08G01G28G09
   -256883.11346   -188999.80443                  25237182.1724
                  25237186.6294                         37.1004         19.6004

  -9078146.17947  -7050019.88644                  22922176.0234
                  22922179.1644                         42.1004         25.3004

 -20454735.73147 -15919251.90646                  21317470.4144
                  21317471.3164                         46.1004         36.6004

 -21367557.25847 -16107746.93045                  21525483.0084
                  21525483.3874                         47.9004         34.0004

 -16496729.69148 -12829738.20646                  21986213.9144
                  21986214.7934                         48.2004         37.5004

  -2414129.15146  -1855331.06943                  24887301.9384
                  24887306.6844                         39.0004         22.2004

 -29414211.52848 -22580109.26246                  20073015.4924
                  20073015.8204                         49.2004         39.9004

 -20073931.27348 -15457932.79146                  21350187.3754
                  21350190.8794                         49.0004         37.5004

 -19602481.75048 -15151708.39346                  21296959.9064
                  21296959.1884                         48.9004         37.6004

 -25389875.17048 -18955762.31346                  19827616.8914
                  19827616.5704                         50.3004         41.3004

 14  5  4  0  1 20.0000000  0 10G15G26G07G11G17G19G08G01G28G09
   -261242.65246   -192396.82643                  25236352.0784
                  25236357.3834                         39.0004         19.0004

  -9074166.05447  -7046918.49044                  22922933.5474
                  22922936.6524                         43.4004         26.2004

 -20441310.10747 -15908790.38546                  21320025.6484
                  21320025.8524                         46.3004         36.6004

 -21359280.19847 -16101297.28145                  21527058.1414
                  21527058.3054                         47.0004         34.4004

 -16506914.11747 -12837674.10146                  21984275.5704
                  21984276.6884                         47.9004         37.4004

  -2396449.75946  -1841554.92444                  24890666.0234
                  24890670.8714                         38.4004         24.3004

 -29411062.41548 -22577655.40546                  20073615.0314
                  20073615.5904                         49.1004         39.7004

 -20076423.46247 -15459874.75646                  21349713.1254
                  21349716.6334                         47.8004         37.8004

 -19606850.30848 -15155112.46246                  21296128.1254
                  21296127.7584                         48.4004         37.0004

 -25386639.96348 -18953241.37446                  19828232.3594
                  19828231.5904                         50.3004         41.1004

 14  5  4  0  1 25.0000000  0 10G15G26G07G11G17G19G08G01G28G09
   -265588.96246   -195783.60843                  25235525.0864
                  25235530.4654                         38.6004         18.3004

  -9070169.96247  -7043804.66244                  22923694.2114
                  22923697.2154                         44.3004         26.7004

 -20427872.93747 -15898319.88146                  21322582.1414
                  21322582.7384                         46.7004         36.9004

 -21350988.18247 -16094835.97145                  21528635.9924
                  21528636.2194                         47.9004         33.8004

 -16517089.77147 -12845603.16646                  21982339.2424
                  21982340.1684                         47.9004         37.3004

  -2378771.23246  -1827779.45644                  24894030.6644
                  24894034.7504                         38.7004         26.4004

 -29407897.04948 -22575188.88946                  20074217.4774
                  20074217.1334                         49.3004         39.8004

 -20078899.23748 -15461803.92546                  21349241.6884
                  21349245.3554                         48.5004         37.9004

 -19611216.28548 -15158514.51346                  21295297.2194
                  21295296.2624                         48.3004         37.0004

 -25383386.98848 -18950706.58546                  19828850.9064
                  19828851.3244                         50.0004         41.5004

 14  5  4  0  1 30.0000000  0 10G15G26G07G11G17G19G08G01G28G09
   -269921.77746   -199159.83742                  25234701.1174
                  25234705.7974                         39.5004         17.8004

  -9066157.50147  -7040678.07844                  22924457.4694
                  22924461.0234                         44.3004         26.3004

 -20414423.88347 -15887840.10546                  21325141.9844
                  21325142.0904                         46.8004         36.5004

 -21342680.82447 -16088362.71645                  21530216.8134
                  21530217.2114                         47.5004         33.9004

 -16527256.35347 -12853525.16246                  21980404.5234
                  21980405.9304                         47.6004         37.4004

  -2361093.32346  -1814004.46644                  24897394.3984
                  24897399.1954                         40.2004         24.9004

 -29404715.01748 -22572709.38746                  20074822.5944
                  20074822.5434                         48.9004         39.8004

 -20081358.19148 -15463719.99146                  21348773.9064
                  21348777.6334                         48.8004         37.8004

 -19615579.25248 -15161914.21846                  21294467.6414
                  21294466.4614                         48.3004         37.0004

 -25380115.93748 -18948157.71546                  19829473.8284
                  19829473.6724                         50.1004         41.5004

 14  5  4  0  1 35.0000000  0 10G15G26G07G11G17G19G08G01G28G09
   -274241.45946   -202525.79342                  25233878.9774
                  25233883.8134                         38.6004         17.8004

  -9062129.10047  -7037539.05844                  22925223.9304
                  22925228.0554                         42.6004         25.8004

 -20400963.31947 -15877351.36946                  21327703.5634
                  21327703.8794                         46.8004         36.6004

 -21334358.51247 -16081877.80345                  21531800.8284
                  21531800.8444                         47.8004         33.1004

 -16537414.19547 -12861440.34246                  21978471.6334
                  21978472.5274                         47.4004         37.0004

  -2343416.31246  -1800230.19744                  24900758.9064
                  24900763.0124                         40.9004         25.6004

 -29401516.68748 -22570217.18346                  20075431.1644
                  20075431.3674                         49.0004         39.7004

 -20083800.68548 -15465623.22946                  21348309.4534
                  21348313.0704                         49.1004         37.9004

 -19619939.59648 -15165311.88546                  21293637.6254
                  21293636.5274                         48.5004         37.0004

 -25376827.08748 -18945594.98046                  19830099.7664
                  19830098.9654                         49.4004         41.5004

 14  5  4  0  1 40.0000000  0 10G15G26G07G11G17G19G08G01G28G09
   -278547.67346   -205881.26943                  25233059.3054
                  25233064.1374                         38.0004         18.3004

  -9058084.41747  -7034387.33444                  22925993.9064
                  22925997.6254                         43.8004         26.3004

 -20387490.95247 -15866853.41946                  21330267.1024
                  21330267.6604                         46.7004         37.0004

 -21326020.96747 -16075381.01845                  21533387.2664
                  21533387.1884                         47.8004         34.2004

 -16547562.98847 -12869348.47246                  21976540.3134
                  21976541.3554                         47.3004         36.8004

  -2325739.94346  -1786456.41144                  24904121.9774
                  24904126.5864                         40.4004         26.5004

 -29398301.74948 -22567712.03746                  20076043.1484
                  20076043.1604                         48.2004         39.7004

 -20086226.40148 -15467513.39046                  21347847.5554
                  21347851.4384                         48.8004         38.0004

 -19624297.00548 -15168707.26346                  21292808.1564
                  21292807.2894                         48.6004         37.1004

 -25373520.21248 -18943018.19046                  19830729.0864
                  19830728.7074                         49.5004         41.1004

 14  5  4  0  1 45.0000000  0 10G15G26G07G11G17G19G08G01G28G09
   -282840.48846   -209226.34042                  25232242.1094
                  25232246.9024                         37.9004         17.8004

  -9054023.50247  -7031222.99444                  22926766.7734
                  22926770.0864                         44.1004         26.5004

 -20374006.83547 -15856346.32846                  21332833.5944
                  21332833.3794                         47.6004         36.6004

 -21317668.27348 -16068872.43845                  21534976.9534
                  21534976.5824                         48.3004         34.2004

 -16557702.79647 -12877249.60346                  21974610.4144
                  21974611.3954                         47.9004         36.8004

  -2308064.24146  -1772683.13844                  24907485.2584
                  24907490.3634                         41.2004         25.6004

 -29395070.24048 -22565193.98246                  20076658.0084
                  20076657.9614                         48.7004         39.7004

 -20088635.40948 -15469390.53646                  21347389.1484
                  21347393.0234                         48.9004         37.8004

 -19628651.52747 -15172100.38746                  21291979.7194
                  21291978.8054                         47.6004         37.3004

 -25370195.34348 -18940427.38146                  19831361.8134
                  19831361.2424                         49.8004         41.3004

 14  5  4  0  1 50.0000000  0 10G15G26G07G11G17G19G08G01G28G09
   -287119.94446   -212560.94443                  25231428.9454
                  25231432.8164                         38.8004         18.3004

  -9049946.45047  -7028046.07144                  22927542.2814
                  22927546.4574                         43.8004         26.4004

 -20360511.01148 -15845830.11646                  21335401.4144
                  21335401.9654                         48.2004         36.4004

 -21309300.41647 -16062352.02845                  21536568.4774
                  21536569.0554                         47.5004         34.5004

 -16567833.64047 -12885143.75146                  21972682.9694
                  21972683.6024                         47.2004         37.0004

  -2290389.28946  -1758910.46244                  24910849.4064
                  24910853.7664                         41.2004         25.3004

 -29391822.23948 -22562663.07046                  20077276.1804
                  20077276.3484                         48.1004         39.3004

 -20091027.74948 -15471254.68846                  21346933.6884
                  21346937.8714                         48.6004         38.2004

 -19633003.18947 -15175491.28446                  21291151.4614
                  21291150.4264                         47.6004         37.4004

 -25366852.52248 -18937822.59446                  19831997.6334
                  19831997.1644                         49.8004         41.0004

 14  5  4  0  1 55.0000000  0 10G15G26G07G11G17G19G08G01G28G09
   -291386.31646   -215885.37242                  25230615.7114
                  25230620.2344                         38.1004         17.4004

  -9045853.51147  -7024856.77644                  22928321.5864
                  22928324.7304                         43.6004         26.7004

 -20347003.75547 -15835305.00046                  21337971.6884
                  21337972.3134                         47.5004         36.9004

 -21300917.71347 -16055820.05145                  21538164.4064
                  21538164.0394                         47.0004         34.2004

 -16577955.78647 -12893031.12246                  21970757.1254
                  21970757.0744                         47.8004         37.1004

  -2272715.35146  -1745138.57044                  24914212.2034
                  24914216.7234                         40.7004         25.1004

 -29388558.01847 -22560119.51746                  20077897.3204
                  20077897.5984                         47.9004         39.5004

 -20093403.67748 -15473106.05446                  21346481.6414
                  21346484.9964                         49.1004         38.2004

 -19637352.26848 -15178880.17346                  21290324.0394
                  21290322.6684                         48.7004         37.3004

 -25363491.98148 -18935203.98246                  19832637.3134
                  19832636.6954                         49.5004         41.0004

 14  5  4  0  2  0.0000000  0 10G15G26G07G11G17G19G08G01G28G09
   -295639.15046   -219199.24942                  25229806.9924
                  25229810.8324                         37.6004         16.9004

  -9041744.32247  -7021654.80844                  22929103.5164
                  22929107.1414                         44.3004         26.0004

 -20333484.79048 -15824770.75046                  21340544.1174
                  21340544.7544                         48.1004         37.2004

 -21292519.77247 -16049276.21845                  21539762.2974
                  21539762.2704                         47.0004         33.5004

 -16588068.84747 -12900911.42246                  21968832.3674
                  21968833.0984                         47.9004         37.0004

  -2255042.03946  -1731367.16544                  24917574.8054
                  24917579.9844                         40.9004         25.6004

 -29385277.16048 -22557563.01046                  20078521.7734
                  20078522.1454                         48.0004         39.3004

 -20095762.80148 -15474944.32646                  21346032.4384
                  21346036.4414                         49.1004         37.8004

 -19641698.37847 -15182266.74446                  21289496.8984
                  21289495.9534                         47.9004         37.2004

 -25360113.42848 -18932571.35846                  19833280.3134
                  19833279.7274                         49.8004         40.8004

 14  5  4  0  2  5.0000000  0 10G15G26G07G11G17G19G08G01G28G09
   -299878.70346   -222502.80742                  25228999.1644
                  25229004.1684                         38.9004         16.9004

  -9037619.05847  -7018440.31544                  22929888.2504
                  22929891.7854                         44.5004         26.5004

 -20319954.14847 -15814227.40546                  21343118.7894
                  21343119.3554                         47.1004         36.9004

 -21284106.75347 -16042720.62145                  21541363.1884
                  21541363.1374                         46.4004         34.2004

 -16598172.97548 -12908784.75146                  21966909.9224
                  21966909.6724                         48.1004         37.4004

  -2237369.48546  -1717596.34144                  24920938.3914
                  24920943.0354                         39.4004         24.4004

 -29381979.85448 -22554993.68046                  20079149.1174
                  20079149.1804                         48.0004         39.8004

 -20098105.32748 -15476769.67146                  21345587.2894
                  21345590.9574                         48.6004         37.2004

 -19646041.72747 -15185651.17746                  21288670.4064
                  21288669.4614                         47.8004         37.3004

 -25356716.98948 -18929924.77946                  19833926.6564
                  19833925.9414                         49.6004         40.7004

 14  5  4  0  2 10.0000000  0 10G15G26G07G11G17G19G08G01G28G09
   -304104.77446   -225795.82742                  25228195.5474
                  25228200.0044                         38.7004         16.3004

  -9033477.65847  -7015213.26044                  22930676.6254
                  22930679.7464                         45.0004         27.1004

 -20306411.80347 -15803674.93246                  21345695.8364
                  21345696.6604                         47.2004         37.0004

 -21275678.65547 -16036153.28245                  21542966.6254
                  21542967.1174                         47.8004         34.3004

 -16608268.07848 -12916651.05746                  21964988.8284
                  21964988.9184                         48.4004         36.8004

  -2219697.54746  -1703826.04043                  24924300.5004
                  24924305.4534                         39.0004         22.8004

 -29378666.00748 -22552411.46946                  20079779.7504
                  20079779.9264                         49.8004         40.0004

 -20100431.11148 -15478581.96146                  21345144.3054
                  21345148.3054                         49.0004         37.7004

 -19650382.14648 -15189033.31746                  21287844.5784
                  21287843.4304                         49.1004         36.8004

 -25353302.57648 -18927264.20046                  19834576.4304
                  19834575.9024                         49.5004         40.9004

 14  5  4  0  2 15.0000000  0 10G15G26G07G11G17G19G08G01G28G09
   -308317.56946   -229078.55542                  25227394.3284
                  25227397.6994                         38.4004         15.6004

  -9029320.28547  -7011973.74944                  22931467.1024
                  22931470.7034                         44.9004         25.9004

 -20292857.92747 -15793113.49146                  21348275.1724
                  21348275.9924                         47.2004         37.2004

 -21267235.53147 -16029574.23045                  21544573.7424
                  21544573.9024                         47.2004         34.3004

 -16618354.34247 -12924510.47046                  21963069.0554
                  21963069.3444                         47.9004         37.2004

  -2202026.38846  -1690056.32743                  24927663.9384
                  24927668.1374                         38.9004         22.9004

 -29375335.77148 -22549816.47746                  20080413.6644
                  20080414.1914                         49.5004         39.8004

 -20102740.31348 -15480381.34246                  21344705.0554
                  21344708.6804                         49.2004         38.0004

 -19654719.76848 -15192413.27946                  21287018.7974
                  21287017.9414                         48.1004         37.4004

 -25349870.31348 -18924589.70946                  19835229.2034
                  19835228.8954                         50.0004         40.9004

 14  5  4  0  2 20.0000000  0 10G15G26G07G11G17G19G08G01G28G09
   -312517.18446   -232350.91442                  25226594.6484
                  25226599.2194                         38.5004         16.9004

  -9025146.99047  -7008721.83544                  22932261.6564
                  22932265.1804                         45.3004         26.5004

 -20279292.58147 -15782543.10746                  21350856.6724
                  21350857.4144                         47.5004         36.8004

 -21258777.62047 -16022983.65745                  21546183.2344
                  21546183.7934                         46.4004         34.5004

 -16628431.86047 -12932363.07746                  21961152.0474
                  21961152.0164                         47.3004         37.2004

  -2184356.27846  -1676287.42443                  24931026.0634
                  24931030.7894                         39.5004         22.5004

 -29371989.22948 -22547208.78546                  20081050.5784
                  20081050.8594                         49.0004         40.2004

 -20105033.02348 -15482167.86646                  21344268.6094
                  21344272.0984                         50.0004         37.2004

 -19659054.76447 -15195791.19246                  21286194.2734
                  21286193.0354                         47.8004         37.2004

 -25346420.31448 -18921901.39946                  19835886.1884
                  19835885.0434                         50.6004         40.6004

 14  5  4  0  2 25.0000000  0 10G15G26G07G11G17G19G08G01G28G09
   -316703.15246   -235612.73142                  25225798.9304
                  25225802.1954                         40.0004         17.4004

  -9020957.25647  -7005457.11244                  22933058.5004
                  22933062.2704                         44.1004         26.0004

 -20265715.30148 -15771963.40846                  21353440.0084
                  21353441.0704                         48.5004         36.6004

 -21250304.29447 -16016381.06945                  21547795.8134
                  21547796.1914                         47.2004         34.0004

 -16638500.09047 -12940208.43846                  21959235.5474
                  21959236.4574                         47.7004         37.3004

  -2166686.66646  -1662518.90143                  24934389.0704
                  24934393.5084                         38.4004         22.3004

 -29368625.85848 -22544587.98446                  20081690.4774
                  20081690.7194                         49.6004         40.1004

 -20107308.72648 -15483941.13746                  21343835.7034
                  21343839.3204                         49.3004         37.7004

 -19663386.62648 -15199166.65646                  21285369.8674
                  21285368.4454                         48.3004         37.4004

 -25342952.06048 -18919198.86046                  19836546.0864
                  19836545.6134                         50.1004         40.5004

 14  5  4  0  2 30.0000000  0 10G15G26G07G11G17G19G08G01G28G09
   -320876.17346   -238864.40143                  25225004.2894
                  25225008.0004                         39.0004         18.3004

  -9016751.87547  -7002180.18444                  22933858.7344
                  22933862.1294                         44.1004         24.7004

 -20252126.82748 -15761375.01146                  21356026.2274
                  21356026.7774                         48.4004         37.0004

 -21241816.34647 -16009767.08845                  21549410.8524
                  21549411.1604                         46.6004         34.0004

 -16648559.74547 -12948047.10946                  21957320.9534
                  21957322.0594                         47.2004         37.3004

  -2149018.22146  -1648751.29543                  24937750.1414
                  24937755.6844                         37.8004         22.3004

 -29365246.41148 -22541954.64946                  20082333.3134
                  20082333.8014                         49.3004         40.2004

 -20109568.15948 -15485701.73046                  21343406.0864
                  21343409.2464                         49.4004         37.8004

 -19667715.99148 -15202540.18946                  21284546.0634
                  21284544.9734                         48.5004         37.3004

 -25339466.26948 -18916482.66346                  19837208.9844
                  19837208.6804                         50.2004         40.6004

 14  5  4  0  2 35.0000000  0 10G15G26G07G11G17G19G08G01G28G09
   -325035.65946   -242105.57143                  25224213.0314
                  25224216.6724                         40.4004         19.0004

  -9012530.29647  -6998890.65444                  22934662.8834
                  22934665.6804                         42.9004         26.2004

 -20238526.65847 -15750777.48146                  21358614.0864
                  21358615.2504                         47.0004         37.2004

 -21233313.21347 -16003141.27545                  21551028.8594
                  21551029.4304                         47.0004         34.0004

 -16658610.38448 -12955878.75346                  21955408.8674
                  21955409.8444                         48.3004         37.5004

  -2131350.58546  -1634984.33643                  24941112.5944
                  24941117.5744                         37.1004         22.3004

 -29361850.35848 -22539308.37746                  20082979.7974
                  20082980.2624                         49.1004         40.3004

 -20111810.77948 -15487449.21746                  21342979.0944
                  21342982.7234                         49.5004         38.3004

 -19672042.44147 -15205911.44546                  21283723.0004
                  21283721.8834                         47.9004         36.6004

 -25335962.44348 -18913752.40646                  19837876.1724
                  19837874.8054                         50.6004         40.7004

 14  5  4  0  2 40.0000000  0 10G15G26G07G11G17G19G08G01G28G09
   -329181.71747   -245336.25343                  25223425.2894
                  25223427.7704                         42.0004         20.4004

  -9008292.58046  -6995588.54344                  22935468.7664
                  22935472.1884                         41.6004         24.7004

 -20224914.79548 -15740170.85046                  21361204.6024
                  21361205.1454                         48.1004         37.1004

 -21224794.97348 -15996503.70145                  21552650.3364
                  21552649.9924                         48.2004         34.2004

 -16668652.01347 -12963703.37946                  21953497.2734
                  21953498.6414                         47.8004         37.2004

  -2113683.63746  -1621217.87043                  24944474.2274
                  24944479.3674                         37.5004         20.9004

 -29358437.72048 -22536649.18446                  20083629.1334
                  20083629.5354                         48.9004         40.2004

 -20114036.61948 -15489183.63546                  21342555.5164
                  21342558.9844                         48.9004         37.7004

 -19676365.92348 -15209280.38846                  21282899.8594
                  21282898.5234                         48.3004         37.0004

 -25332440.59948 -18911008.11946                  19838545.9694
                  19838545.7624                         51.2004         41.2004

 14  5  4  0  2 45.0000000  0 10G15G26G07G11G17G19G08G01G28G09
   -333314.62846   -248556.72243                  25222637.2734
                  25222641.3014                         41.1004         20.4004

  -9004038.97647  -6992274.04644                  22936278.0554
                  22936281.4414                         43.2004         24.5004

 -20211291.51148 -15729555.31346                  21363796.8674
                  21363797.2814                         48.7004         37.3004

 -21216261.93347 -15989854.58445                  21554273.7974
                  21554273.6564                         47.3004         34.0004

 -16678684.86947 -12971521.17346                  21951588.2194
                  21951589.4734                         47.5004         37.0004

  -2096017.69846  -1607452.23743                  24947836.4614
                  24947841.1254                         37.2004         20.6004

 -29355008.74848 -22533977.26146                  20084281.7034
                  20084282.2854                         49.6004         40.0004

 -20116245.96148 -15490905.19046                  21342134.7344
                  21342138.7304                         49.1004         37.7004

 -19680686.76748 -15212647.27046                  21282077.4224
                  21282076.3634                         48.5004         37.0004

 -25328901.04948 -18908250.02846                  19839220.1024
                  19839219.1334                         51.9004         40.8004
